[
    {
        "name": "Beloved Cafe",
        "website": "https://www.instagram.com/belovedcafe_/?hl=cs",
        "categories": [
            {
                "alias": "coffee",
                "title": "Coffee & Tea"
            },
            {
                "alias": "juicebars",
                "title": "Juice Bars & Smoothies"
            },
            {
                "alias": "vegan",
                "title": "Vegan"
            }
        ],
        "rating": 4.5,
        "google_rating": 4.7,
        "coordinates": {
            "latitude": 37.75235,
            "longitude": -122.41925
        },
        "location": {
            "address1": "3338 24th St",
            "address2": null,
            "address3": "",
            "city": "San Francisco",
            "zip_code": "94110",
            "country": "US",
            "state": "CA",
            "display_address": [
                "3338 24th St",
                "San Francisco, CA 94110"
            ]
        },
        "phone": "+14158006546"
    },
    {
        "name": "Home Coffee Roasters",
        "website": "https://homecoffeeroaster.jp/",
        "categories": [
            {
                "alias": "coffee",
                "title": "Coffee & Tea"
            },
            {
                "alias": "coffeeroasteries",
                "title": "Coffee Roasteries"
            }
        ],
        "rating": 4.5,
        "google_rating": 4.0,
        "coordinates": {
            "latitude": 37.782323,
            "longitude": -122.480993
        },
        "location": {
            "address1": "2018 Clement St",
            "address2": null,
            "address3": "",
            "city": "San Francisco",
            "zip_code": "94121",
            "country": "US",
            "state": "CA",
            "display_address": [
                "2018 Clement St",
                "San Francisco, CA 94121"
            ]
        },
        "phone": "+14157029244"
    },
    {
        "name": "Jane on Fillmore",
        "website": "http://itsjane.com/",
        "categories": [
            {
                "alias": "coffee",
                "title": "Coffee & Tea"
            },
            {
                "alias": "bakeries",
                "title": "Bakeries"
            },
            {
                "alias": "breakfast_brunch",
                "title": "Breakfast & Brunch"
            }
        ],
        "rating": 4.0,
        "google_rating": 4.3,
        "coordinates": {
            "latitude": 37.78934,
            "longitude": -122.43423
        },
        "location": {
            "address1": "2123 Fillmore St",
            "address2": "",
            "address3": "",
            "city": "San Francisco",
            "zip_code": "94115",
            "country": "US",
            "state": "CA",
            "display_address": [
                "2123 Fillmore St",
                "San Francisco, CA 94115"
            ]
        },
        "phone": "+14159315263"
    },
    {
        "name": "Cafe RÃ©veille",
        "website": "http://cafereveille.com/",
        "categories": [
            {
                "alias": "breakfast_brunch",
                "title": "Breakfast & Brunch"
            },
            {
                "alias": "cafes",
                "title": "Cafes"
            },
            {
                "alias": "sandwiches",
                "title": "Sandwiches"
            }
        ],
        "rating": 4.0,
        "google_rating": 4.4,
        "coordinates": {
            "latitude": 37.7710554824632,
            "longitude": -122.432099291995
        },
        "location": {
            "address1": "201 Steiner St",
            "address2": "",
            "address3": null,
            "city": "San Francisco",
            "zip_code": "94117",
            "country": "US",
            "state": "CA",
            "display_address": [
                "201 Steiner St",
                "San Francisco, CA 94117"
            ]
        },
        "phone": "+14155292034"
    },
    {
        "name": "The Coffee Movement",
        "website": "https://www.thecoffeemovement.com/",
        "categories": [
            {
                "alias": "coffee",
                "title": "Coffee & Tea"
            }
        ],
        "rating": 5.0,
        "google_rating": 4.9,
        "coordinates": {
            "latitude": 37.79483,
            "longitude": -122.4103
        },
        "location": {
            "address1": "1030 Washington St",
            "address2": null,
            "address3": "",
            "city": "San Francisco",
            "zip_code": "94108",
            "country": "US",
            "state": "CA",
            "display_address": [
                "1030 Washington St",
                "San Francisco, CA 94108"
            ]
        },
        "phone": "+15108284933"
    }
]